Station,Start,End,Site,Latitude,Longitude,Elevation
ACH,7/24/96,12/31/99,Angle Creek Headwaters; Katmai; Alaska,58.21,-155.3281,960
ADAG,9/15/99,12/31/99,Mount Adagdak; Regional Station; Alaska,51.98004,-176.60023,293
ADKI,6/23/17,12/31/99,Adak infrasound array; Adak Island; Alaska,51.8617,-176.6448,6
AHB,7/24/96,12/31/99,Akutan Harbor; Akutan Volcano; Alaska,54.115339,-165.8161,411
AJAX,7/9/00,7/16/02,Aniakchak; Aniakchak Jack; Alaska,56.8887,-158.2238,967
AK1,3/19/96,8/8/97,Akutan 1; Akutan Volcano,54.135,-165.772,12
AK2,3/18/96,8/8/97,Akutan 2; Akutan Volcano,54.1233,-165.7803,90
AK3,3/17/96,8/8/97,Akutan 3; Akutan Volcano,54.135,-165.772,12
AK4,3/17/96,8/8/97,Akutan 4; Akutan Volcano,54.1091,-165.7337,135
AK5,3/21/96,8/8/97,Akutan 5; Akutan Volcano,54.15434,-165.867,225
AKBB,7/5/05,12/31/99,Akutan Broad Bright; Akutan Volcano; Alaska,54.0975,-165.9338,310
AKGG,6/27/03,12/31/99,Akutan Green Grass; Akutan Volcano; Alaska,54.1979,-165.9936,326
AKHS,8/8/18,12/31/99,Akutan Hot Springs Bay; Akutan Volcano; Alaska,54.1533,-165.8868,553
AKLV,7/2/03,12/31/99,Akutan Long Valley; Akutan Volcano; Alaska,54.162633,-165.95563,528
AKM,3/18/96,8/8/97,Akutan M; Akutan Volcano,54.1543,-165.867,225
AKMO,6/25/03,12/31/99,Akutan Morgan; Akutan Volcano; Alaska,54.0903,-166.0126,277
AKRB,6/29/03,12/31/99,Akutan Reef Bight; Akutan Volcano; Alaska,54.1292,-166.0708,334
AKS,7/24/96,12/31/99,Akutan Strait; Akutan Volcano; Alaska,54.11047,-165.69691,219.5
AKSA,7/5/11,12/31/99,Akutan Strait; Akutan Volcano; Alaska,54.11047,-165.69691,219.5
AKT,11/1/05,12/31/99,Akutan School; Akutan Volcano; Alaska,54.1349,-165.772,12
AKV,7/24/96,12/31/99,Akutan Volcano; Akutan Volcano; Alaska,54.12591,-165.96234,905
AMKA,10/14/05,12/31/99,Amchitka Island; Regional Station; Alaska,51.3784,179.3019,116
ANCK,7/25/96,12/31/99,Angle Creek; Katmai Volcanic Cluster; Alaska,58.198743,-155.4955,865
ANIA,7/18/97,7/9/00,Aniakchak Volcano; Aniakchak Crater; Alaska,56.9048,-158.2316,930
ANNE,7/18/97,7/31/22,Aniakchak Northeast; Alaska,56.9119,-158.061,705
ANNQ,7/27/22,12/31/99,Aniakchak Nanwaq; Alaska,56.932754,-158.113103,371
ANNW,7/18/97,12/31/99,Aniakchak North West; Alaska,56.9656,-158.217,816
ANON,6/30/00,8/13/22,Aniakchak Anonymous; Alaska,56.919,-158.1737,445
ANPB,7/18/97,12/31/99,Aniakchak Plenty Bear; Alaska,56.80157,-158.28265,662
ANPK,6/30/97,12/31/99,Aniakchak Peak; Alaska,56.8409,-158.1283,972
ANRM,7/27/22,12/31/99,Aniakchak Rim; Alaska,56.8962,-158.2337,1037
ANSL,6/18/97,7/8/00,Aniakchak Surprise Lake; Alaska,56.9316,-158.1384,344
ANVM,7/31/22,12/31/99,Aniakchak Vent Mountain; Alaska,56.8858,-158.17509,591.3
AU11,12/20/05,2/11/06,AU11; Augustine Volcano; Alaska,59.359,-153.4826,234
AU12,12/20/05,1/31/06,AU12; Augustine Volcano; Alaska,59.3829,-153.4542,210
AU13,12/20/05,5/30/06,AU13; Augustine Volcano; Alaska,59.3458,-153.4364,518
AU14,12/21/05,8/7/06,AU14; Augustine Volcano; Alaska,59.3705,-153.3992,303
AU15,12/21/05,8/11/06,AU15; Augustine Volcano; Alaska,59.3501,-153.4879,168
AU20,1/9/06,9/1/06,Augustine Mound; Augustine Volcano; Alaska,59.3696,-153.3563,102
AU22,11/1/05,12/31/99,Augustine Mound; Augustine Volcano; Alaska,59.370595,-153.35506,105
AUC,9/13/95,10/6/03,Augustine Crater; Cook Inlet; Alaska,59.3593,-153.4268,1175
AUCH,8/20/13,12/31/99,Augustine Cone H; Augustine Volcano; Alaska,59.3626,-153.4447,916
AUE,4/1/88,6/30/20,Augustine East; Augustine Volcano; Alaska,59.3711,-153.3773,168
AUH,4/1/88,6/30/20,Dome H; Augustine Volcano; Alaska,59.3632,-153.4454,890
AUI,4/1/88,6/30/20,Augustine Island; Cook Inlet; Alaska,59.3345,-153.4299,293
AUJA,8/20/13,12/31/99,Augustine Junction; Augustine Volcano; Alaska,59.33956,-153.42258,376
AUJK,8/12/11,12/31/99,Augustine Juergen Kienle; Augustine Volcano; Alaska,59.34593,-153.41057,359
AUL,8/27/97,12/31/99,Lava Flow; Augustine Volcano; Alaska,59.38218,-153.43765,327
AULG,7/2/18,12/31/99,Augustine Lagoon; Augustine Volcano; Alaska,59.3773,-153.5193,18
AUNO,9/2/18,12/31/99,Augustine North; Augustine Volcano; Alaska,59.403992,-153.451444,30.5
AUNW,3/15/06,6/30/20,Augustine Northwest; Augustine Volcano; Alaska,59.3775,-153.479,160
AUP,4/1/88,6/30/20,Augustine Pinnacle; Augustine Volcano; Alaska,59.3627,-153.4226,1033
AUQ,11/1/05,6/30/20,Augustine Qik'rtamen; Augustine Volcano; Alaska,59.3549,-153.4143,647
AUR,11/1/95,1/11/06,Augustine Rim; Cook Inlet; Alaska,59.3621,-153.4335,1225
AUS,9/1/90,1/11/06,Augustine Summit; Cook Inlet; Alaska,59.3593,-153.4329,1226
AUSB,8/29/15,12/31/99,Augustine South Buttress; Augustine Volcano; Alaska,59.333,-153.4284,230
AUSE,2/3/06,8/16/11,Augustine Southeast; Cook Inlet; Alaska,59.3407,-153.3997,152
AUSS,6/14/15,12/31/99,Augustine Summit Station; Augustine Volcano; Alaska,59.358957,-153.431042,1211
AUW,4/1/88,12/31/99,Augustine West; Augustine Volcano; Alaska,59.369413,-153.47295,300
AUWS,6/14/15,12/31/99,Augustine West Swell; Augustine Volcano; Alaska,59.35851,-153.46115,465
AZAC,7/11/02,8/13/22,Aniakchak Zack; Alaska,56.8947,-158.2328,1057
BAEI,7/18/22,12/31/99,Barry Arm East Infrasound Array; Alaska,61.132128,-148.122216,588.3
BGL,8/13/89,7/15/18,Barrier Glacier; Mount Spurr; Alaska,61.2663,-152.3913,1127
BGM,4/1/88,6/30/20,Big Mountain; Regional Station; Alaska,59.392,-155.2315,625
BGR,7/1/91,6/30/20,Barrier Glacier Two; regional station; Alaska,60.7569,-152.4199,985
BKG,7/1/91,6/30/20,Blockade Glacier; Mount Spurr; Alaska,61.0696,-152.265,1009
BLDW,8/12/22,12/31/99,Baldy Mountain West; Mount Dutton; Alaska,55.190907,-162.787687,239
BLDY,7/11/96,7/28/18,Baldy Mountain; Mount Dutton; Alaska,55.1936,-162.7856,259
BLHA,7/11/96,12/31/99,Black Hill; Pavlof Volcano; Alaska,55.702988,-162.066971,399
BOGO,8/15/18,12/31/99,Bogoslof; Bogoslof Volcano; Alaska,53.9291,-168.0347,5
BPBC,10/3/02,8/13/22,Black Peak Birthday Creek; Veniaminof; Alaska,56.5889,-158.4547,584
BPPC,8/21/22,12/31/99,Black Peak Purple Crater; Alaska,56.58428,-158.82578,856.8
BRPK,7/27/97,12/31/99,Brown Peak; Shishaldin Volcano; Alaska,54.6446,-163.74286,402.3
CAHL,7/25/96,12/31/99,Cahill; Katmai; Alaska,58.0518,-155.3036,807
CDD,4/1/88,6/30/20,Cape Douglas; Fourpeaked Volcano; Alaska,58.9289,-153.6449,622
CEAP,9/17/05,12/31/99,Anvil Peak; Cerberus Volcano; Alaska,52.0012,179.5758,244
CEPE,9/17/05,12/31/99,Perret Ridge; Cerberus Volcano; Alaska,51.96442,179.64735,339.2
CERA,9/26/05,12/31/99,Ragged Top; Cerberus Volcano; Alaska,51.9058,179.6826,305
CERB,9/18/05,12/31/99,Cerberus Volcano; Cerberus Volcano; Alaska,51.93023,179.62785,324.3
CESW,9/18/05,12/31/99,Southwest; Cerberus Volcano; Alaska,51.8998,179.5613,238
CETU,9/22/05,12/31/99,Tuman Head; Cerberus Volcano; Alaska,51.96491,179.49217,317.3
CGL,4/1/88,9/11/18,Capps Glacier; Mt. Spurr; Alaska,61.3071,-152.009,1082
CKL,8/5/89,7/15/18,Chakachamna Lake; Mount Spurr; Alaska,61.1934,-152.3401,1281
CKN,8/30/02,7/16/18,Chakachatna North; Mt. Spurr; Alaska,61.2234,-152.1838,735
CKT,9/15/92,12/31/99,Chakachatna Bend; Mt. Spurr; Alaska,61.2002,-152.2085,975
CLCL,9/13/22,12/31/99,Carlisle Island; Cleveland Volcano; Alaska,52.8827,-170.02417,353.6
CLCO,8/9/14,12/31/99,Concord Point; Cleveland Volcano; Alaska,52.7866,-169.7229,137
CLES,7/25/14,12/31/99,Cleveland East; Cleveland Volcano; Alaska,52.8235,-169.8951,146
CLNE,9/5/22,12/31/99,Cleveland Northeast; Cleveland Volcano; Alaska,52.842481,-169.922345,328
CLSF,9/19/22,12/31/99,Cleveland South Flank; Cleveland Volcano; Alaska,52.793592,-169.928134,121
CNTC,7/25/96,12/31/99,Contact Creek; Katmai; Alaska,58.2638,-155.8858,1158
CP2,10/23/92,9/7/18,Crater Peak 2; Mt. Spurr; Alaska,61.2636,-152.2441,1981
CRP,4/1/88,9/7/18,Crater Peak; Mount Spurr; Alaska,61.2664,-152.1578,1622
DEER,8/24/20,12/31/99,Deer Island; Alaska,54.97127,-162.32437,392.3
DFR,8/15/88,7/23/18,Drift River; Redoubt; Alaska,60.5913,-152.6882,1090
DLL,10/12/10,12/31/99,Dillingham infrasound array site H1; Alaska,59.136028,-158.614235,58.5
DOL,7/11/96,12/31/99,Dolgoi Island; Mount Dutton; Alaska,55.149621,-161.86472,453
DRR3,7/11/96,7/4/17,Deer Island; Mount Dutton; Alaska,54.966,-162.2631,457
DT1,6/21/91,12/31/99,Dutton Round Hill; Mount Dutton; Alaska,55.10627,-162.28313,198
DTN,7/16/88,12/31/99,Dutton Volcano; Alaska,55.1448,-162.259,396
EDCR,5/20/22,12/31/99,Edgecumbe Crater Ridge; Edgecumbe Volcano; Alaska,57.07165,-135.70087,642
EDES,7/21/23,12/31/99,Edgecumbe East Side; Edgecumbe Volcano; Alaska,57.0446,-135.709,259
EDNW,7/21/23,12/31/99,Edgecumbe Northwest Ridge; Edgecumbe Volcano; Alaska,57.0629,-135.7831,380
EDSO,7/26/23,12/31/99,Edgecumbe South; Edgecumbe Volcano; Alaska,57.0283,-135.7878,223
ETKA,7/11/99,12/31/99,Kagalaska Island; Regional Station; Alaska,51.86187,-176.40565,248
FONW,10/19/06,6/30/20,Fourpeaked Northwest; Fourpeaked Volcano; Alaska,58.8341,-153.9204,905
FOPK,9/25/06,6/30/20,Fourpeaked Mountain; Fourpeaked Volcano; Alaska,58.7574,-153.4762,546
FOSS,10/19/06,6/30/20,Fourpeaked Summit; Fourpeaked Volcano; Alaska,58.7987,-153.6971,1268
GAEA,8/30/03,12/31/99,East; Gareloi Volcano; Alaska,51.7819,-178.7488,326
GAKI,9/1/03,12/31/99,Kavalga Island; Gareloi Volcano; Alaska,51.5534,-178.814,99
GALA,8/30/03,12/31/99,Lava Point; Gareloi Volcano; Alaska,51.760629,-178.77365,313
GANE,9/2/03,12/31/99,Northeast; Gareloi Volcano; Alaska,51.817787,-178.77859,300
GANO,9/2/03,12/31/99,North; Gareloi Volcano; Alaska,51.8192,-178.8058,451
GASW,8/30/03,12/31/99,Southwest; Gareloi Volcano; Alaska,51.777633,-178.856549,252
GSCK,9/15/99,12/31/99,Cape Kiugilak; Great Sitkin Volcano; Alaska,52.011509,-176.151768,360
GSIG,9/3/99,12/31/99,Igitkin Island; Great Sitkin Volcano; Alaska,51.986385,-175.92501,409
GSMY,9/3/99,12/31/99,Middle Yoke Creek; Great Sitkin Volcano; Alaska,52.043035,-176.056699,404
GSSP,9/15/99,12/31/99,Saddle Point; Great Sitkin Volcano; Alaska,52.09356,-176.17752,248
GSTD,9/3/99,12/31/99,Triple Divide; Great Sitkin Volcano; Alaska,52.055797,-176.144777,865
GSTR,9/3/99,12/31/99,Teapot Rock; Great Sitkin Volcano; Alaska,52.094361,-176.05888,495
HAG,7/10/96,12/31/99,Hague Volcano; Pavlof Volcano; Alaska,55.31687,-161.90451,518.2
HSB,7/24/96,8/12/18,Hot Springs; Akutan Volcano; Alaska,54.1859,-165.9144,497
ILCB,7/28/20,12/31/99,Iliamna Chinitna Bay; Iliamna Volcano; Alaska,59.82231,-153.02322,712
ILI,4/1/88,8/14/18,Iliamna Volcano; Alaska,60.0807,-152.9606,771
ILLG,9/14/18,12/31/99,Iliamna Lateral Glacier; Iliamna Volcano; Alaska,60.06885,-152.97855,975
ILNE,8/31/16,12/31/99,Iliamna Northeast; Iliamna Volcano; Alaska,60.0573,-153.06354,1684.3
ILS,8/28/96,12/31/99,Iliamna South; Iliamna Volcano; Alaska,59.957,-153.0703,1125
ILSW,8/13/15,12/31/99,Iliamna Southwest; Iliamna Volcano; Alaska,59.9832,-153.1425,1318
ILW,9/9/94,12/31/99,Iliamna West; Iliamna Volcano; Alaska,60.059317,-153.13875,1676
INE,8/29/90,8/31/16,Iliamna North East; Iliamna Volcano; Alaska,60.0599,-153.0644,1634
ISLZ,8/12/08,12/31/99,Lazaref River; Shishaldin Volcano; Alaska,54.7249,-163.7129,634
ISNN,7/27/97,12/31/99,Isanotski North; Isanotski; Alaska,54.83157,-163.78082,490
ISTK,7/14/97,8/17/08,Isanotski; Shishaldin Volcano; Alaska,54.7312,-163.7083,704
IVE,8/29/96,12/31/99,Iliamna Volcano East; Iliamna Volcano; Alaska,60.0163,-153.0185,1211.9
IVS,8/29/90,6/30/20,Iliamna Volcano Summit; Iliamna Volcano; Alaska,60.0086,-153.083,2332
KAB2,7/31/20,12/31/99,Katmai Barrier Ridge Two; Alaska,58.13116,-154.97616,908
KABR,8/12/98,8/1/20,Katmai Barrier Ridge; Alaska,58.1304,-154.9705,940
KABU,8/1/04,12/31/99,Katmai Buttress Ridge; Alaska,58.2702,-155.2843,1065
KAHC,10/12/98,12/31/99,Katmai Hardscrabble Creek; Alaska,58.6483,-155.0081,1250
KAHG,10/12/98,12/31/99,Katmai Hook Glacier; Alaska,58.493726,-154.54667,910
KAIC,10/12/98,6/30/20,Katmai Ikaluik Glacier; Alaska,58.4843,-155.0479,734
KAKN,8/1/04,12/31/99,Knife Creek Promontory; Katmai; Alaska,58.2963,-155.0632,1049
KAPH,10/12/98,12/31/99,Katmai Pasha; Alaska,58.596689,-154.346679,907
KARR,10/12/98,12/31/99,Katmai Rainbow River; Alaska,58.498123,-154.70383,609
KAVE,8/3/20,12/31/99,Katmai Ventifact; Alaska,58.19782,-155.02341,702
KAWH,10/12/98,12/31/99,Katmai West Hook; Alaska,58.383,-154.8013,777
KBM,7/18/97,12/31/99,Katmai Baked Mountain; Alaska,58.27467,-155.20517,687
KCE,7/19/97,8/18/21,Katmai Cerebus; Alaska,58.2426,-155.1854,777
KCG,7/19/97,8/18/21,Knife Creek Glacier; Katmai; Alaska,58.3069,-155.1135,762
KEL,7/20/97,12/31/99,Katmai Kelez; Alaska,58.44,-155.7407,975
KENI,10/1/20,12/31/99,Kenai infrasound array; Kenai; Alaska,60.640864,-151.07108,17
KICM,9/15/99,12/31/99,Cape Miga; Kanaga Volcano; Alaska,51.91896,-177.19559,173
KIKV,9/15/99,12/31/99,Kanaga Volcano; Kanaga Volcano; Alaska,51.878494,-177.17061,403
KIMD,9/15/99,12/31/99,MID Benchmark; Kanaga Volcano; Alaska,51.761504,-177.235207,173.1
KINC,9/15/99,12/31/99,North Cape; Kanaga Volcano; Alaska,51.93147,-177.1275,203
KIRH,9/3/99,12/31/99,Round Head; Kanaga Volcano; Alaska,51.89981,-177.0937,321
KIWB,9/3/99,12/31/99,Westway Bight; Kanaga Volcano; Alaska,51.853,-177.15094,234
KJL,7/25/96,12/31/99,Kejulik; Katmai; Alaska,58.0533,-155.5753,792
KOFP,7/2/04,12/31/99,Flat Point; Korovin Volcano; Alaska,52.274,-174.0992,662
KOKL,7/5/04,12/31/99,Mount Kliuchef; Korovin Volcano; Alaska,52.3221,-174.2022,758
KOKV,7/5/04,12/31/99,Korovin Volcano; Korovin Volcano; Alaska,52.3603,-174.1673,776
KONE,7/10/04,12/31/99,Northeast; Korovin Volcano; Alaska,52.39246,-174.12157,247
KONW,7/4/04,12/31/99,Northwest; Korovin Volcano; Alaska,52.3954,-174.2125,334
KOSE,7/6/04,12/31/99,Southeast; Korovin Volcano; Alaska,52.3447,-174.0505,625
KOWE,7/6/04,12/31/99,West; Korovin Volcano; Alaska,52.36459,-174.25262,572
KVT,8/1/88,12/31/99,Katmai Valley of 10;000 Smokes; Alaska,58.38067,-155.29854,505.7
LSNW,9/30/05,12/31/99,Northwest; Little Sitkin Volcano; Alaska,51.96931,178.51482,264.3
LSPA,9/30/05,12/31/99,Pratt Point; Little Sitkin Volcano; Alaska,51.9557,178.5714,335
LSSA,9/28/05,12/31/99,Saddle; Little Sitkin Volcano; Alaska,51.9484,178.5112,549
LSSE,9/27/05,12/31/99,Southeast; Little Sitkin Volcano; Alaska,51.93203,178.56697,308.8
LVA,7/24/96,12/31/99,Lava Point; Akutan Volcano; Alaska,54.1609,-166.0337,457
MAPS,8/2/12,12/31/99,Pakushin Southeast; Makushin Volcano; Alaska,53.808128,-166.94061,333
MCIR,7/25/96,12/31/99,Makushin Cirque; Makushin Volcano; Alaska,53.9505,-166.8942,800
MGLS,7/25/96,12/31/99,Mageik Landslide; Katmai; Volcanic Group; Alaska,58.133437,-155.16262,509
MGOD,7/25/96,12/31/99,Gods Own Repeater Site; Makushin Volcano; Alaska,53.793422,-166.878,667
MMN,4/1/88,6/30/20,McNeil River; Regional Station; Alaska,59.1845,-154.3389,442
MNAT,7/25/96,12/31/99,Nateekin Bay; Makushin Volcano; Alaska,53.88291,-166.68574,384
MREP,1/1/02,12/31/99,Repeater; Makushin Volcano; Alaska,53.8096,-166.7476,785
MSOM,7/24/96,8/2/12,Julie Andrews; Makushin Volcano; Alaska,53.8154,-166.9385,146
MSW,7/20/96,12/31/99,Switchbacks; Makushin Volcano; Alaska,53.914796,-166.788006,423
MTBL,7/24/96,12/31/99,Table Top; Makushin Volcano; Alaska,53.968,-166.6813,810
N20K,4/26/20,12/31/99,Chakachatna River; Mount Spurr; AK; USA,61.2001,-152.2089,991
N25K,4/26/20,12/31/99,Chitina; Valdez-Cordova; AK; USA,61.6061,-144.5982,1087
NCG,11/1/05,7/15/18,North Capps Glacier; Mount Spurr; Alaska,61.4031,-152.159,1244
NCT,8/14/88,12/31/99,North Crescent; Redoubt Volcano; Alaska,60.5621,-152.9293,1136
OKAK,7/11/05,12/31/99,Cape Aslik 2; Okmok Caldera; Alaska,53.4113,-168.36,165
OKAS,1/9/03,11/1/05,Cape Aslik; Okmok Caldera; Alaska,53.4043,-168.3634,270
OKBR,7/31/21,12/31/99,Big Rock; Okmok Caldera; Alaska,53.41915,-168.07471,452
OKCB,7/25/10,9/2/10,New Cone D; Okmok Caldera; Alaska,53.4559,-168.1257,404
OKCD,1/9/03,7/12/08,Cone D; Okmok Caldera; Alaska,53.4293,-168.1143,459
OKCE,1/9/03,12/31/99,Cone E; Okmok Caldera; Alaska,53.4261,-168.16629,516
OKCF,1/9/03,12/31/99,Cone F; Okmok Caldera; Alaska,53.3948,-168.1382,685
OKER,1/9/03,7/19/21,East Rim; Okmok Caldera; Alaska,53.4536,-168.0513,956
OKFG,1/9/03,12/31/99,Magazine Ridge; Fort Glenn; Okmok Caldera; Alaska,53.41078,-167.91141,196
OKID,1/9/03,7/14/21,Mount Idak; Okmok Caldera; Alaska,53.4764,-167.8182,437
OKIF,8/1/10,12/31/99,Okmok Infrasound Array; Umnak Island; Alaska,53.410298,-167.914317,218.4
OKNC,9/2/10,12/31/99,New Cone D; Okmok Caldera; Alaska,53.4559,-168.12553,404
OKNO,7/27/21,12/31/99,North Ridge; Okmok Caldera; Alaska,53.52769,-168.09396,460.9
OKRE,1/9/03,7/16/21,Reindeer Point; Okmok Caldera; Alaska,53.5192,-168.1661,422
OKSO,9/8/04,12/31/99,South; Okmok Caldera; Alaska,53.3565,-168.1619,460
OKSP,1/9/03,12/31/99,Steeple Point; Okmok Caldera; Alaska,53.2516,-168.2925,608
OKTU,1/9/03,12/31/99,Mount Tulik; Okmok Caldera; Alaska,53.3829,-168.0431,646
OKWE,1/9/03,12/31/99,Weeping Wall; Okmok Caldera; Alaska,53.4711,-168.2418,445
OKWR,1/9/03,7/11/21,West Rim; Okmok Caldera; Alaska,53.4337,-168.2076,1017
OPT,11/1/05,6/30/20,Oil Point; Regional Station; Alaska,59.6526,-153.2321,602
P18K,4/26/20,12/31/99,Big Mountain; AK; USA,59.3922,-155.2292,680
P19K,4/26/20,12/31/99,Oil Pt; AK; USA,59.6524,-153.2319,629
PDB,8/1/97,6/30/20,Pedro Bay; Regional Station; Alaska,59.7841,-154.1917,360
PLBL,8/1/04,12/31/99,Blue Mountain; Mt. Peulik Volcano; Alaska,57.6991,-156.821,461
PLK1,8/1/04,12/31/99,Mt. Peulik Volcano 1; Alaska,57.8012,-156.6093,78
PLK2,8/1/04,12/31/99,Mt. Peulik Volcano 2; Alaska,57.7634,-156.3264,401
PLK3,8/1/04,12/31/99,Mt. Peulik Volcano 3; Alaska,57.688,-156.2695,494
PLK4,8/1/04,6/14/18,Mt. Peulik Volcano 4; Alaska,57.6314,-156.3598,1031
PLK5,8/1/04,12/31/99,Mt. Peulik Volcano 5; Alaska,57.997,-156.88,49
PLWL,8/1/04,12/31/99,Whale Mountain; Mt. Peulik Volcano; Alaska,58.0442,-156.3434,585
PN7A,7/11/96,12/31/99,Pavlof North 7A; Pavlof Volcano; Alaska,55.4329,-161.9973,838
PS1A,7/10/96,12/31/99,Pavlof South 1A; Pavlof Volcano; Alaska,55.42002,-161.74385,283.5
PS4A,7/11/96,12/31/99,Pavlof South 4A; Pavlof Volcano; Alaska,55.34597,-161.85651,329.8
PTHD,4/10/23,12/31/99,Port Heiden regional site; Aniakchak Volcano; Alaska,56.95167,-158.65016,18.97
PV6,7/11/96,7/4/16,Pavlof North 6; Pavlof Volcano; Alaska,55.4528,-161.9205,747
PV6A,7/4/16,12/31/99,Pavlof North 6A; Pavlof; Alaska,55.507,-161.9714,352
PVV,7/11/96,12/31/99,Pavlof Volcano; Alaska,55.37316,-161.79199,165.8
Q17K,4/26/20,12/31/99,Contact Creek; Katmai; AK; USA,58.2637,-155.8865,1165
Q18K,4/26/20,12/31/99,Katmai Hardscrabble Creek; AK; USA,58.6484,-155.0086,1250
Q20K,4/26/20,12/31/99,Shuyak Island; AK; USA,58.6097,-152.3942,180
R17L,4/26/20,12/31/99,Mt. Peulik Volcano; AVO PLK4; AK; USA,57.6313,-156.3599,524
RD01,3/21/09,6/10/09,Broadband 01; Redoubt; Alaska,60.4885,-152.7031,1831
RD02,3/20/09,6/11/09,Broadband 02; Redoubt; Alaska,60.5208,-152.7376,1401
RD03,3/20/09,6/11/09,Broadband 03; Redoubt; Alaska,60.4705,-152.8201,1607
RDDF,10/11/10,12/31/99,Drift River; Redoubt Volcano; Alaska,60.5912,-152.6883,1134
RDDR,7/1/09,6/30/20,Drift River; Redoubt Volcano; Alaska,60.5843,-152.5887,905
RDE,2/4/09,7/3/09,East; Redoubt Volcano; Alaska,60.5869,-152.5925,571
RDJH,2/4/09,12/31/99,Juergen's Hut; Redoubt Volcano; Alaska,60.5905,-152.8058,1414
RDN,8/13/88,8/18/18,North; Redoubt Volcano; Alaska,60.5224,-152.7401,1400
RDSO,8/29/11,12/31/99,South; Redoubt Volcano; Alaska,60.4536,-152.7453,1556.9
RDT,4/1/88,12/31/99,Redoubt; Redoubt Volcano; Alaska,60.5726,-152.4079,945
RDW,11/1/05,7/1/09,West; Redoubt Volcano; Alaska,60.4821,-152.81,1813
RDWB,2/24/09,12/31/99,West Buttress; Redoubt Volcano; Alaska,60.486807,-152.843634,1659
RED,4/1/88,12/31/99,Redoubt Volcano; Redoubt Volcano; Alaska,60.4196,-152.7742,1071
REF,3/14/90,12/31/99,East Flank; Redoubt Volcano; Alaska,60.4888,-152.694,1641
RSO,3/1/90,9/10/18,South; Redoubt Volcano; Alaska,60.4616,-152.756,1921
S12K,4/26/20,12/31/99,Black Hills; AK; USA,55.702988,-162.066971,399
S14K,4/26/20,12/31/99,Fog Glacier; AK; USA,56.2848,-159.5532,1059
SDPI,10/17/16,12/31/99,Sand Point infrasound array; Unga Island; Alaska,55.3492,-160.4768,80
SPBG,9/9/04,12/31/99,Barrier Glacier; Mount Spurr; Alaska,61.2591,-152.3722,1087
SPBL,9/5/18,12/31/99,Spurr Beluga Lake; Mount Spurr; Alaska,61.3764,-151.8947,927
SPCG,9/8/04,12/31/99,Capps Glacier; Mount Spurr; Alaska,61.2913,-152.0228,1329
SPCL,7/12/18,12/31/99,Chakachamna Lake; Mount Spurr; Alaska,61.1956,-152.3399,1274
SPCN,9/1/10,12/31/99,Chakachatna North; Mount Spurr; Alaska,61.223675,-152.18403,733.3
SPCP,10/2/10,12/31/99,Crater Peak Broadband; Mount Spurr; Alaska,61.265465,-152.155495,1640
SPCR,9/8/04,12/31/99,Chakachatna River; Mount Spurr; Alaska,61.2003,-152.2091,984
SPNN,7/31/11,12/31/99,North Nagishlamina; Mount Spurr; Alaska,61.3662,-152.7012,1166
SPNW,8/17/04,7/31/11,Spurr Northwest; Mount Spurr; Alaska,61.3465,-152.6062,1040
SPU,4/1/88,12/31/99,Mount Spurr; Mount Spurr; Alaska,61.1811,-152.0566,800
SPWE,8/17/04,12/31/99,Spurr West; Mount Spurr; Alaska,61.27346,-152.559,1317
SSBA,7/31/08,12/31/99,Broadband A; Shishaldin Volcano; Alaska,54.771749,-164.12662,646.2
SSL1,7/29/23,12/31/99,Shishaldin Volcano; Alaska,54.6814,-163.9094,225
SSLN,7/27/97,12/31/99,North; Shishaldin Volcano; Alaska,54.811351,-163.998557,789.6
SSLS,7/27/97,12/31/99,South; Shishaldin Volcano; Alaska,54.70938,-163.99723,796
SSLW,7/27/97,7/25/19,West; Shishaldin Volcano; Alaska,54.7709,-164.1234,636
STLK,9/1/97,12/31/99,Strandline Lake; Mount Spurr Regional Station; Alaska,61.4982,-151.8349,945
SYI,8/27/90,6/30/20,Shuyak Island; Alaska,58.6094,-152.3935,149
TACS,8/28/03,7/21/19,Cape Sajaka; Tanaga Volcano; Alaska,51.8621,-178.1414,918
TAFL,8/28/03,12/31/99,Flats; Tanaga Volcano; Alaska,51.7555,-177.8998,186
TAFP,8/27/03,12/31/99,Falls Point; Tanaga Volcano; Alaska,51.899,-177.9853,440
TANO,8/24/03,12/31/99,North; Tanaga Volcano; Alaska,51.9146,-178.1228,269
TAPA,8/27/03,12/31/99,Point Aries; Tanaga Volcano; Alaska,51.8144,-177.8148,640
TASE,8/24/03,12/31/99,Southeast; Tanaga Volcano; Alaska,51.834935,-178.03717,686
TASO,7/11/19,12/31/99,South; Tanaga Volcano; Alaska,51.85355,-178.1453,690
VNBL,7/31/22,12/31/99,Black Lake; Mount Veniaminof; Alaska,56.30434,-159.2077,640.7
VNCG,7/31/22,12/31/99,Cone Glacier; Mount Veniaminof; Alaska,56.20186,-159.48344,1199.1
VNFG,2/6/02,8/13/22,Fog Glacier; Mount Veniaminof; Alaska,56.2849,-159.5532,1068
VNHG,2/6/02,8/13/22,Harpoon Glacier;Mount Veniaminof; Alaska,56.2203,-159.1663,966
VNKR,2/6/02,12/31/99,Kametolook River; Mount Veniaminof; Alaska,56.032021,-159.36805,620
VNNF,2/6/02,8/13/22,North Flank; Mount Veniaminof; Alaska,56.2829,-159.3181,1153
VNSG,2/6/02,12/31/99,Slim Glacier; Mount Veniaminof; Alaska,56.125,-159.0875,761
VNSO,7/31/22,12/31/99,South; Mount Veniaminof; Alaska,56.081522,-159.264433,649.5
VNSS,2/6/02,8/13/22,Summit; Mount Veniaminof; Alaska,56.2259,-159.4569,1733
VNSW,2/6/02,12/31/99,Southwest; Mount Veniaminof; Alaska,56.07137,-159.56071,696.8
VNWF,2/6/02,12/31/99,West Flank; Mount Veniaminof; Alaska,56.1509,-159.5643,1095
WACK,7/30/00,12/31/99,Chichokna Glacier; Mount Wrangell; Alaska,61.9858,-144.3305,2280
WANC,7/30/00,7/28/17,Wrangell North Crater;Mount Wrangell; Alaska,62.0027,-144.072,4190
WASW,8/3/01,12/31/99,Wrangell Southwest; Mount Wrangell; Alaska,61.9277,-144.1745,2196
WAZA,8/3/01,12/31/99,Zanetti; Mount Wrangell; Alaska,62.0746,-144.1544,2531
WEBT,8/2/08,12/31/99,Beartrack Creek; Westdahl Peak; Alaska,54.5902,-164.755,467
WECS,8/4/08,12/31/99,Cape Sarichef; Westdahl Peak; Alaska,54.53,-164.7796,639
WESE,8/28/98,12/31/99,Southeast; Westdahl Peak; Alaska,54.4723,-164.586,953
WESN,10/16/98,12/31/99,South; Westdahl Peak; Alaska,54.57184,-164.58054,552.5
WESP,7/31/08,12/31/99,Westdahl Peak; Westdahl Peak; Alaska,54.492371,-164.723326,977
WESS,8/28/98,7/31/08,Westdahl South; Westdahl Peak; Alaska,54.4796,-164.7242,908
WFAR,7/5/98,8/3/08,Westdahl Faris Peak; Alaska,54.5329,-164.7781,640
WHTR,2/10/21,12/31/99,Whittier infrasound array; Whittier; Alaska,60.77968,-148.72701,20
WPOG,7/5/98,8/2/08,Westdahl Pogromni; Alaska,54.5964,-164.7454,445
WTUG,10/16/98,12/31/99,Tugamak; Westdahl Peak; Alaska,54.8466,-164.3873,636
ZRO,7/24/96,12/31/99,Zero; Akutan Volcano; Alaska,54.09163,-165.97798,441.7
NIKH,6/21/07,12/31/99,"Nikolski High Hill, AK, USA",52.9721,-168.855,199
,,,,,,
,,,,,,
,,,,,,